{
  "students": [
    {
      "id": "1",
      "name": "John",
      "location": "India",
      "phone": "1234567890",
      "courses": [
        "Java",
        "Selenium",
        "python"
      ]
    },
    {
      "id": "2",
      "name": "Kim",
      "location": "US",
      "phone": "98876543213",
      "courses": [
        "Python",
        "Appium"
      ]
    },
    {
      "id": "3",
      "name": "Smith",
      "location": "Canada",
      "phone": "165498765",
      "courses": [
        "C#",
        "RestAPI"
      ]
    },
    {
      "id": "1bd5",
      "name": "maha",
      "location": "ind",
      "phone": "9887676",
      "courses": [
        "Manual",
        "Auto"
      ]
    },
    {
      "id": "1",
      "name": "John",
      "location": "Indian",
      "phone": "1234567890",
      "courses": [
        "Java",
        "Selenium"
      ]
    },
    {
      "id": "269b",
      "name": "Smith smith",
      "location": "Canada",
      "phone": "165498765",
      "courses": [
        "C#",
        "RestAPI"
      ]
    },
    {
      "id": "ff38",
      "name": "Scott",
      "location": "France",
      "phone": "123456",
      "courses": [
        "C",
        "c++"
      ]
    },
    {
      "id": "6be0",
      "name": "Scottt",
      "location": "Francee",
      "phone": "123456",
      "courses": [
        "C",
        "c++"
      ]
    },
    {
      "id": "7538",
      "name": "Scottt",
      "location": "Francee",
      "phone": "123456",
      "courses": [
        "C",
        "c++"
      ]
    }
  ]
}